City,Country,Matched address,Latitude,Longitude
Cairo,Egypt,"Cairo, Cairo Governorate, Egypt",30.048819,31.243666
Giza,Egypt,"Giza, 12541, Egypt",30.017006,31.213451
Alexandria,Egypt,"Alexandria, 21519, Egypt",31.199004,29.894378
Damietta,Egypt,"Damietta, Markaz Shirbin, Egypt",31.416743,31.821366
Hurghada,Egypt,"Hurghada, 84532, Egypt",27.240502,33.826784
Suez,Egypt,"Suez Governorate, Egypt",29.661412,32.223918
Assiut,Egypt,"New Assiut, Asyut Governorate, Egypt",27.269356,31.29722
Minya,Egypt,"Minya Governate, Egypt",28.21254,30.912374
Mahikeng,South Africa,"Mahikeng Ward 3, Mahikeng Local Municipality, Ngaka Modiri Molema District Municipality, RSA",-25.700963,25.580996
JOHANNESBURG,South Africa,"Johannesburg, 2001, RSA",-26.205,28.049722
PRETORIA,South Africa,"Pretoria, 0001, RSA",-25.745937,28.187944
Cape Town,South Africa,"Cape Town, 8001, RSA",-33.928992,18.417396
Krugersdorp,South Africa,"Krugersdorp, 1739, RSA",-26.095556,27.775556
Randburg,South Africa,"Randburg, 2125, RSA",-26.096111,27.975
Gauteng,South Africa,"Gauteng, RSA",-25.936344,28.081311
Tygerberg,South Africa,"Tygerberg, Cape Town, 7500, RSA",-33.853814,18.58863
Midrand,South Africa,"Midrand, 1682, RSA",-25.999262,28.125912
Boksburg,South Africa,"Boksburg, 1460, RSA",-26.212464,28.261747
Harding,South Africa,"Harding, Ugu District Municipality, RSA",-30.575833,29.884722
Port Shepstone,South Africa,"Port Shepstone, 4240, RSA",-30.742778,30.450556
Umthatha,South Africa,"Umthatha Street, Tshwane Ward 77, Mnandi A.H., 0158, RSA",-25.908499,28.096714
KwaZulu-Natal,South Africa,"KwaZulu-Natal, RSA",-28.503833,30.887501
Botswana,South Africa,"Botswana Street, Johannesburg Ward 44, Soweto, RSA",-26.212892,27.856599
Balgowan,South Africa,"Balgowan, Cape Town Ward 84, Somerset West, 7129, RSA",-34.072782,18.856009
BEDFORDVIEW,South Africa,"Bedfordview, Gauteng, 2008, RSA",-26.176389,28.1425
Franschhoek,South Africa,"Franschhoek, 7690, RSA",-33.909167,19.119444
Durban,South Africa,"Durban, 4001, RSA",-29.861825,31.009909
Joburg,South Africa,"Johannesburg, City of Johannesburg Metropolitan Municipality, South Africa",-26.20227,28.04363
Fourways,South Africa,"Fourways, Randburg, 2055, RSA",-26.005,28.003889
La Lucia,South Africa,"La Lucia, Durban, 4321, RSA",-29.754722,31.059444
Tongaat,South Africa,"Tongaat, eThekwini Metropolitan Municipality, RSA",-29.560833,31.122222
Sandton,South Africa,"Sandton, 2010, RSA",-26.068241,28.047984
Lonehill,South Africa,"Lonehill, Johannesburg, 2001, RSA",-26.009722,28.026111
Knysna,South Africa,"Knysna, 6570, RSA",-34.035734,23.048485
Honeydew,South Africa,"Honeydew, Roodepoort, City of Johannesburg Metropolitan Municipality, RSA",-26.078839,27.925302
Beacon Bay,South Africa,"Beacon Bay, East London, 5241, RSA",-32.969444,27.944722
Walmer,South Africa,"Walmer, Port Elizabeth, 6000, RSA",-33.978333,25.5874
Lagos,Nigeria,"Lagos 100242, Lagos, Nigeria",6.455058,3.39418
Abuja,Nigeria,"Abuja 900001, Federal Capital Territory, Nigeria",9.064331,7.489297
Kaduna,Nigeria,"Kaduna, Nigeria",10.382532,7.853323
IBADAN,Nigeria,"Ibadan 234102, Oyo, Nigeria",7.377746,3.89725
KANO,Nigeria,"Kano PMB 3401, Kano, Nigeria",11.991867,8.530365
YOBE,Nigeria,"Yobe, Nigeria",12.123324,11.506594
OGUN,Nigeria,"Ogun, Nigeria",6.978858,3.438929
Port Harcourt,Nigeria,"Port Harcourt 500211, Rivers, Nigeria",4.767658,7.018853
Ogun State,Nigeria,"Ogun, Nigeria",6.978858,3.438929
Gwagwalada,Nigeria,"Gwagwalada, Nigeria",8.936026,7.085914
Calabar,Nigeria,"Calabar, Calabar Municipal, Nigeria",4.9796,8.33736
Ilorin,Nigeria,"Ilorin 240212, Kwara, Nigeria",8.496366,4.548048
Delta State,Nigeria,"Delta, Nigeria",5.527306,6.178417
Minna,Nigeria,"Minna, Chanchaga, Nigeria",9.618709,6.547575
Benin,Nigeria,"Benin City 11012, Edo, Nigeria",6.333059,5.622106
Anambra,Nigeria,"Anambra, Nigeria",6.218314,6.953184
Asaba,Nigeria,"Asaba, Oshimili South, Nigeria",6.188193,6.749352
Asokoro,Nigeria,"Asokoro 900001, Federal Capital Territory, Nigeria",9.051982,7.530019
Ondo State,Nigeria,"Ondo, Nigeria",7.020969,5.056748
Lekki,Nigeria,New York,40.741895,-73.989308
Gudu,Nigeria,"Gudu, Song, Nigeria",9.916667,12.533333
Akwa Ibom,Nigeria,"Akwa Ibom, Nigeria",4.940864,7.841227
Benue State,Nigeria,"Benue, Nigeria",7.350575,8.777288
Plateau,Nigeria,"Plateau, Nigeria",9.058345,9.682629
Casablanca,Morocco,"20 000 Casablanca, Morocco",33.595063,-7.618777
Agadir,Morocco,"Agadir, Pachalik d'Agadir ⵍⴱⴰⵛⴰⵡⵉⵢⴰ ⵏ ⴰⴳⴰⴷⵉⵔ أگادير ‎باشوية, Morocco",30.421114,-9.583063
Rabat,Morocco,"Rabat, pachalik de Rabat, Morocco",34.022405,-6.834543
Marrakesh,Morocco,"40034 Marrakesh, Morocco",31.625826,-7.989161
Tangier,Morocco,"Tangier, pachalik de Tanger طنجة, Morocco",35.764231,-5.818626
Fès,Morocco,"Fez, Pachalik du Fes, Morocco",34.034653,-5.016193
Ifrane,Morocco,"53002 Ifrane, Morocco",33.527605,-5.107408
Marrakech,Morocco,"40034 Marrakesh, Morocco",31.625826,-7.989161
Tanger,Morocco,"Tangier, pachalik de Tanger طنجة, Morocco",35.764231,-5.818626
Salé,Morocco,"Salé, Pachalik de Salé, Morocco",34.015678,-6.756799
Gaborone,Botswana,"Gaborone, Botswana",-24.655319,25.908728
Palapye,Botswana,"Palapye, Central District, Botswana",-22.536888,27.123513
Molepolole,Botswana,"Molepolole, Kweneng District, Botswana",-24.405802,25.515165
Algiers,Algeria,Algeria,28.000027,2.999983
Marondera,Zimbabwe,"Marondera, Zimbabwe",-18.255504,31.454406
Harare,Zimbabwe,"Harare, Zimbabwe",-17.831773,31.045686
Bulawayo,Zimbabwe,"Bulawayo, Bulawayo Province, Zimbabwe",-20.15606,28.588706
Kwekwe,Zimbabwe,"Kwekwe, Zimbabwe",-18.794238,29.573345
Kadoma,Zimbabwe,"Kadoma, Zimbabwe",-18.205463,29.677078
Concession,Zimbabwe,"Concession, Mazowe, Zimbabwe",-17.372672,30.952824
Victoria Falls,Zimbabwe,"Victoria Falls, Livingstone Way, Zimbabwe",-17.923884,25.851725
Ruwa,Zimbabwe,"Ruwa, Goromonzi, Zimbabwe",-17.897155,31.237093
Accra,Ghana,"Accra, Ghana",5.560014,-0.205744
Akosombo,Ghana,"Akosombo, Eastern Region, Ghana",6.269799,0.050899
Kumasi,Ghana,"Kumasi, Ghana",6.698081,-1.62304
Tema,Ghana,"Tema, Ghana",5.659644,-0.009659
Addis Ababa,Ethiopia,"Addis Ababa, Ethiopia",9,38.75
Hawassa,Ethiopia,"1923 Hawassa, Ethiopia",7.048103,38.47861
Bishoftu,Ethiopia,"1034 Bishoftu, Ethiopia",8.750004,38.981734
Tripoli,Libya,"Tripoli, Libya",32.896672,13.177792
Benghazi,Libya,"Benghazi, Libya",32.128833,20.08172
Dar es Salaam,Tanzania,"11101 Dar es Salaam, Coastal Zone, Tanzania",-6.816084,39.280358
Kilimanjaro,Tanzania,"Uhuru Peak, Rombo, Kilimanjaro, Tanzania",-3.076408,37.353999
Arusha,Tanzania,"23210 Arusha, Arusha, Tanzania",-3.427534,36.708585
Morogoro,Tanzania,"Morogoro, Tanzania",-6.86835,37.8138
Usa River,Tanzania,"Usa River, Arusha, Tanzania",-3.371401,36.85822
Mwanza,Tanzania,"33102 Mwanza, Mwanza, Tanzania",-2.519691,32.901442
Zanzibar,Tanzania,"Zanzibar, Tanzania",-6.099944,39.320944
Shinyanga,Tanzania,"578 Shinyanga, Shinyanga, Tanzania",-3.656205,33.427115
Dodoma,Tanzania,"Dodoma, Tanzania",-6.179118,35.746817
Iringa,Tanzania,"Iringa, Tanzania",-7.583843,35.494412
Khartoum,Sudan,"11114 Khartoum, Sudan",15.593325,32.53565
Omdurman,Sudan,"Omdurman, Khartoum State, Sudan",15.644554,32.477731
La Soukra,Tunisia,"سكرة, Tunisia",36.881081,10.231308
Le Kram,Tunisia,"2015 Tunis, Tunisia",36.847999,10.294356
Tunis,Tunisia,Tunisia,33.843941,9.400138
El Aouina,Tunisia,"العوينة الشمالية, Tunisia",33.172785,9.515519
La Goulette,Tunisia,"2060 La Goulette, Tunisia",36.817565,10.306839
Sousse,Tunisia,"Sousse, محمد معروف, Tunisia",35.828829,10.640525
Yaoundé,Cameroon,"Yaounde, Cameroon",3.868987,11.521334
Douala,Cameroon,"Communauté urbaine de Douala, Cameroon",4.053739,9.664437
Dakar,Senegal,"2084 Dakar, Senegal",14.693425,-17.447938
Bamako,Mali,"Bamako, Mali",12.649319,-8.000337
Nairobi,Kenya,"Nairobi, Kenya",-1.283253,36.817245
Limuru,Kenya,"Limuru, Kiambu County, Kenya",-1.115864,36.63931
Tatu City,Kenya,"Tatu City, Kiambu County, Kenya",-1.151442,36.900997
Kisumu,Kenya,"Kisumu, 40100, Kenya",-0.102911,34.754176
Nakuru,Kenya,"Nakuru, Kenya",-0.459821,36.10068
Mombasa,Kenya,"Mombasa, Kenya",-4.039015,39.648391
Thika,Kenya,"Thika, Kiambu County, Kenya",-1.036648,37.077523
Nanyuki,Kenya,"Nanyuki, Laikipia, Kenya",0.01403,37.074632
Kilifi,Kenya,"Kilifi, Kenya",-3.150739,39.675072
Juja,Kenya,"Juja, Kiambu County, Kenya",-1.103223,37.010895
Eldoret,Kenya,"Eldoret, Uasin Gishu, Kenya",0.514207,35.285325
Kisumu,Kenya,"Kisumu, 40100, Kenya",-0.102911,34.754176
Ruiru,Kenya,"Ruiru, Kiambu County, Kenya",-1.147271,36.960449
Molo,Kenya,"Molo, Baringo, Kenya",0.505158,36.090612
Diani Beach,Kenya,"Diani Beach, Diani Beach Road, Kwale, 80401, Kenya",-4.322126,39.575055
Kajiado,Kenya,"Kajiado County, Kenya",-2.121717,36.786255
Gilgil,Kenya,"Gilgil, Nakuru, Kenya",-0.498167,36.3254
Athi River,Kenya,"Athi River, Machakos, Kenya",-1.317492,37.56333
Kisii,Kenya,"Kisii, 40200, Kenya",-0.669412,34.767794
Kampala,Uganda,"Kampala, Uganda",0.317714,32.581354
Jinja,Uganda,"Jinja, Uganda",0.546547,33.224817
Kololo,Uganda,"Central, Uganda",0.333278,32.59346
NAGURU,Uganda,"Kampala, Uganda",0.341905,32.606366
Gayaza,Uganda,"Gayaza, Uganda",0.451786,32.611144
Entebbe,Uganda,"Entebbe, Uganda",0.061172,32.469856
Mbarara,Uganda,"Mbarara, Uganda",-0.522838,30.634127
Mukono,Uganda,"Mukono, Uganda",-0.083569,32.713666
Ivory Coast,Abidjan,"Abidjan, Côte d'Ivoire",5.409118,-4.04221
Lusaka,Zambia,"10101 Lusaka, Zambia",-15.416449,28.282154
Livingstone,Zambia,"Livingstone, Southern Province, Zambia",-17.853135,25.861429
Northwestern Province,Zambia,Zambia,-14.33333,28.5
Chilanga,Zambia,"010101 Chilanga, Zambia",-15.558751,28.275459
Chingola,Zambia,"00000 Chingola, Zambia",-12.547493,27.860042
Solwezi,Zambia,"Solwezi, North-Western Province, Zambia",-12.182055,26.399071
Mkushi,Zambia,"Mkushi, Central Province, Zambia",-13.614285,29.401649
